[
    {
      "id": 1,
      "name": "Royal Sushi House",
      "stars": 4,
      "rank": 1,
      "openingHours": "11am-22am",
      "description": "Best Sushi House in Ub",
      "meals":""
    },
    {
      "id": 2,
      "name": "Burgers & Pizza",
      "stars": 3,
      "rank": 5,
      "openingHours": "12pm-23pm",
      "description": "Best burger and pizza in town"
    },
    {
      "id": 3,
      "name": "Mongolian Grill",
      "stars": 5,
      "rank": 2,
      "openingHours": "10am-20pm",
      "description": "Savor the flavors of Mongolia"
    },
    {
      "id": 4,
      "name": "Burger Haven",
      "stars": 4,
      "rank": 8,
      "openingHours": "11am-21pm",
      "description": "Home of the juiciest burgers"
    },
    {
      "id": 5,
      "name": "Sizzling Steaks",
      "stars": 4,
      "rank": 4,
      "openingHours": "18pm-01am",
      "description": "Experience the best steaks in town"
    },
    {
      "id": 6,
      "name": "Sizzling Steaks",
      "stars": 4,
      "rank": 4,
      "openingHours": "18pm-01am",
      "description": "Experience the best steaks in town"
    },
    {
      "id": 7,
      "name": "Sizzling Steaks",
      "stars": 4,
      "rank": 4,
      "openingHours": "18pm-01am",
      "description": "Experience the best steaks in town"
    },
    {
      "id": 8,
      "name": "Sizzling Steaks",
      "stars": 4,
      "rank": 4,
      "openingHours": "18pm-01am",
      "description": "Experience the best steaks in town"
    },
    {
      "id": 9,
      "name": "Sizzling Steaks",
      "stars": 4,
      "rank": 4,
      "openingHours": "18pm-01am",
      "description": "Experience the best steaks in town"
    },
    {
      "id": 10,
      "name": "Sizzling Steaks",
      "stars": 4,
      "rank": 4,
      "openingHours": "18pm-01am",
      "description": "Experience the best steaks in town"
    },
    {
      "id": 11,
      "name": "Sizzling Steaks",
      "stars": 4,
      "rank": 4,
      "openingHours": "18pm-01am",
      "description": "Experience the best steaks in town"
    },
    {
      "id": 12,
      "name": "Sizzling Steaks",
      "stars": 4,
      "rank": 4,
      "openingHours": "18pm-01am",
      "description": "Experience the best steaks in town"
    }
  ]
  
  